,名称,カナ,郵便番号,区,所在地_住所1,所在地_住所2,緯度,経度,電話番号,URL,運営団体,備考
1,萩丘児童クラブ,ハギオカジドウクラブ,4338123,中区,浜松市中区幸5丁目11-8,,34.745892,137.725668,(053)471-9885,https://hagioka-jidoclub.amebaownd.com,萩丘児童クラブ父母会,
2,にじ組小学生クラブ,ニジグミショウガクセイクラブ,4310203,西区,浜松市西区馬郡町2560,,34.683469,137.627861,(053)592-1600,,学校法人　春日学園,
3,なごみ倶楽部,ナゴミクラブ,4338105,北区,浜松市北区三方原町1367-1,,34.783039,137.711229,(053)420-7530,,社会福祉法人　和光会,
4,聖隷こども園ひかりの子学童保育,セイレイコドモエンヒカリノコガクドウホイク,4350052,東区,浜松市東区天王町1896,,34.740964,137.767397,(053)421-6822,,社会福祉法人　聖隷福祉事業団,
5,染地台放課後児童クラブ,ソメチダイホウカゴジドウクラブ,4340046,浜北区,浜松市浜北区染地台1丁目31-2,,34.785613,137.746766,090-3552-2238,https://sites.google.com/view/jinjyagakudou/,染地台放課後児童クラブ保護者会,
6,浜松ひがし,ハママツヒガシ,4350042,東区,浜松市東区篠ヶ瀬町581,,34.727567,137.778263,(053)421-5590,,社会福祉法人 全人会,
7,あゆみの森キッズ倶楽部,アユミノモリキッズクラブ,4340035,浜北区,浜松市浜北区寺島2898-3,,34.786115,137.794254,(053)585-2343,http://www.ikutokukai.ed.jp/publics/index/72/,社会福祉法人育徳会,"北浜地区、浜名地区の小学校へ送迎バスを運行予定です。
お気軽にお問い合わせ下さい。"
8,学童保育リョウマクラブ,ガクドウホイクリョウマクラブ,4338105,北区,浜松市北区三方原町10-45,,34.774407,137.722408,090-1561-1836,https://ryoumaclub.amebaownd.com/,一般社団法人学童保育リョウマクラブ,1日から利用可能です。お気軽にお問い合わせ下さい。